{"type": "FeatureCollection", "id": "http://data.archaeology.link/data/bb5kbc/Site_collection", "name": "Site Instances Collection", "features": [{"type": "Feature", "id": "http://data.archaeology.link/data/bb5kbc/loc_15", "name": "Trebatsch 1 (bb5kbc:loc_15)", "dateprops": [], "properties": {}, "geometry": {"type": "Point", "coordinates": [14.1985845087684, 52.0849261660395], "crs": "4326"}}, {"type": "Feature", "id": "http://data.archaeology.link/data/bb5kbc/loc_25", "name": "Rohrbeck 14 (bb5kbc:loc_25)", "dateprops": [], "properties": {}, "geometry": {"type": "Point", "coordinates": [13.0316686141939, 51.965663321984], "crs": "4326"}}, {"type": "Feature", "id": "http://data.archaeology.link/data/bb5kbc/loc_44", "name": "Quedlinburg KGA 2 (bb5kbc:loc_44)", "dateprops": [], "properties": {}, "geometry": {"type": "Point", "coordinates": [11.1566059319996, 51.7858029144234], "crs": "4326"}}, {"type": "Feature", "id": "http://data.archaeology.link/data/bb5kbc/loc_22", "name": "Bochow 7 (bb5kbc:loc_22)", "dateprops": [], "properties": {}, "geometry": {"type": "Point", "coordinates": [13.0847532115604, 51.9647854812076], "crs": "4326"}}, {"type": "Feature", "id": "http://data.archaeology.link/data/bb5kbc/loc_26", "name": "Angerm\u00fcnde 41 (bb5kbc:loc_26)", "dateprops": [], "properties": {}, "geometry": {"type": "Point", "coordinates": [14.0133745411872, 52.9992823167434], "crs": "4326"}}, {"type": "Feature", "id": "http://data.archaeology.link/data/bb5kbc/loc_1", "name": "Seelow 20 (bb5kbc:loc_1)", "dateprops": [], "properties": {}, "geometry": {"type": "Point", "coordinates": [14.3833333255572, 52.5452775430815], "crs": "4326"}}, {"type": "Feature", "id": "http://data.archaeology.link/data/bb5kbc/loc_24", "name": "J\u00fcterbog 31 (bb5kbc:loc_24)", "dateprops": [], "properties": {}, "geometry": {"type": "Point", "coordinates": [13.0492011888627, 51.9896677289187], "crs": "4326"}}, {"type": "Feature", "id": "http://data.archaeology.link/data/bb5kbc/loc_27", "name": "Berkholz zu Berkholz-Meyenburg 5 (bb5kbc:loc_27)", "dateprops": [], "properties": {}, "geometry": {"type": "Point", "coordinates": [14.1862300013802, 53.0625025101861], "crs": "4326"}}, {"type": "Feature", "id": "http://data.archaeology.link/data/bb5kbc/loc_21", "name": "Bochow 6 (bb5kbc:loc_21)", "dateprops": [], "properties": {}, "geometry": {"type": "Point", "coordinates": [13.0858993739255, 51.9635092440072], "crs": "4326"}}, {"type": "Feature", "id": "http://data.archaeology.link/data/bb5kbc/loc_33", "name": "Meichow 8 (bb5kbc:loc_33)", "dateprops": [], "properties": {}, "geometry": {"type": "Point", "coordinates": [13.9652498943823, 53.1832699725103], "crs": "4326"}}, {"type": "Feature", "id": "http://data.archaeology.link/data/bb5kbc/loc_13", "name": "Boo\u00dfen 2 (bb5kbc:loc_13)", "dateprops": [], "properties": {}, "geometry": {"type": "Point", "coordinates": [14.4891514077344, 52.3751537006729], "crs": "4326"}}, {"type": "Feature", "id": "http://data.archaeology.link/data/bb5kbc/loc_12", "name": "Elsterwerda 10 (bb5kbc:loc_12)", "dateprops": [], "properties": {}, "geometry": {"type": "Point", "coordinates": [13.5586988021946, 51.4398316239272], "crs": "4326"}}, {"type": "Feature", "id": "http://data.archaeology.link/data/bb5kbc/loc_4", "name": "Gallun 4 (bb5kbc:loc_4)", "dateprops": [], "properties": {}, "geometry": {"type": "Point", "coordinates": [13.5577360107329, 52.2482428722165], "crs": "4326"}}, {"type": "Feature", "id": "http://data.archaeology.link/data/bb5kbc/loc_8", "name": "Neuendorf am See 6 (bb5kbc:loc_8)", "dateprops": [], "properties": {}, "geometry": {"type": "Point", "coordinates": [13.8787796612809, 52.0974143164012], "crs": "4326"}}, {"type": "Feature", "id": "http://data.archaeology.link/data/bb5kbc/loc_45", "name": "Schia\u00df 1 (bb5kbc:loc_45)", "dateprops": [], "properties": {}, "geometry": {"type": "Point", "coordinates": [13.1416364677636, 52.2612893628189], "crs": "4326"}}, {"type": "Feature", "id": "http://data.archaeology.link/data/bb5kbc/loc_43", "name": "Quedlinburg KGA 1 (bb5kbc:loc_43)", "dateprops": [], "properties": {}, "geometry": {"type": "Point", "coordinates": [11.1534869240729, 51.7846213076888], "crs": "4326"}}, {"type": "Feature", "id": "http://data.archaeology.link/data/bb5kbc/loc_23", "name": "Gro\u00df Kienitz 7 (bb5kbc:loc_23)", "dateprops": [], "properties": {}, "geometry": {"type": "Point", "coordinates": [13.4551075002326, 52.3269941183066], "crs": "4326"}}, {"type": "Feature", "id": "http://data.archaeology.link/data/bb5kbc/loc_29", "name": "Flemsdorf 10 (bb5kbc:loc_29)", "dateprops": [], "properties": {}, "geometry": {"type": "Point", "coordinates": [14.1641122617899, 53.0302292598348], "crs": "4326"}}, {"type": "Feature", "id": "http://data.archaeology.link/data/bb5kbc/loc_16", "name": "Drebkau 2 (bb5kbc:loc_16)", "dateprops": [], "properties": {}, "geometry": {"type": "Point", "coordinates": [14.2260737668818, 51.6503688034177], "crs": "4326"}}, {"type": "Feature", "id": "http://data.archaeology.link/data/bb5kbc/loc_37", "name": "Platkow 13 (bb5kbc:loc_37)", "dateprops": [], "properties": {}, "geometry": {"type": "Point", "coordinates": [14.331376484099, 52.6057790432099], "crs": "4326"}}, {"type": "Feature", "id": "http://data.archaeology.link/data/bb5kbc/loc_20", "name": "Bochow 2 (bb5kbc:loc_20)", "dateprops": [], "properties": {}, "geometry": {"type": "Point", "coordinates": [13.0692830806605, 51.9623206773578], "crs": "4326"}}, {"type": "Feature", "id": "http://data.archaeology.link/data/bb5kbc/loc_28", "name": "Berkholz zu Berkholz-Meyenburg 8 (bb5kbc:loc_28)", "dateprops": [], "properties": {}, "geometry": {"type": "Point", "coordinates": [14.1895328419857, 53.0614463027942], "crs": "4326"}}, {"type": "Feature", "id": "http://data.archaeology.link/data/bb5kbc/loc_42", "name": "Zwenkau-Eythra (bb5kbc:loc_42)", "dateprops": [], "properties": {}, "geometry": {"type": "Point", "coordinates": [12.2961222325768, 51.2351275316024], "crs": "4326"}}, {"type": "Feature", "id": "http://data.archaeology.link/data/bb5kbc/loc_34", "name": "Niederlandin 8 (bb5kbc:loc_34)", "dateprops": [], "properties": {}, "geometry": {"type": "Point", "coordinates": [14.1523596505517, 53.0554339377783], "crs": "4326"}}, {"type": "Feature", "id": "http://data.archaeology.link/data/bb5kbc/loc_14", "name": "Neupetershain 5/33 (5) (bb5kbc:loc_14)", "dateprops": [], "properties": {}, "geometry": {"type": "Point", "coordinates": [14.189614353341, 51.6068726263749], "crs": "4326"}}, {"type": "Feature", "id": "http://data.archaeology.link/data/bb5kbc/loc_6", "name": "Kaden 4 (bb5kbc:loc_6)", "dateprops": [], "properties": {}, "geometry": {"type": "Point", "coordinates": [13.8034684990564, 51.9065771715704], "crs": "4326"}}, {"type": "Feature", "id": "http://data.archaeology.link/data/bb5kbc/loc_17", "name": "Neuendorf 23 (bb5kbc:loc_17)", "dateprops": [], "properties": {}, "geometry": {"type": "Point", "coordinates": [14.417554004278, 51.8011468406747], "crs": "4326"}}, {"type": "Feature", "id": "http://data.archaeology.link/data/bb5kbc/loc_36", "name": "Sch\u00f6nwerder 5 (bb5kbc:loc_36)", "dateprops": [], "properties": {}, "geometry": {"type": "Point", "coordinates": [13.815411741033, 53.3874740969454], "crs": "4326"}}, {"type": "Feature", "id": "http://data.archaeology.link/data/bb5kbc/loc_19", "name": "Bochow 16 (bb5kbc:loc_19)", "dateprops": [], "properties": {}, "geometry": {"type": "Point", "coordinates": [13.0815683800061, 51.9630071146682], "crs": "4326"}}, {"type": "Feature", "id": "http://data.archaeology.link/data/bb5kbc/loc_31", "name": "Gr\u00fcnow bei Sch\u00f6nermark 17/18 (17) (bb5kbc:loc_31)", "dateprops": [], "properties": {}, "geometry": {"type": "Point", "coordinates": [14.0752749543883, 53.1239629867006], "crs": "4326"}}, {"type": "Feature", "id": "http://data.archaeology.link/data/bb5kbc/loc_9", "name": "Selchow 7 (bb5kbc:loc_9)", "dateprops": [], "properties": {}, "geometry": {"type": "Point", "coordinates": [13.4682086474743, 52.3525830057769], "crs": "4326"}}, {"type": "Feature", "id": "http://data.archaeology.link/data/bb5kbc/loc_30", "name": "Flemsdorf 6/1 (6) (bb5kbc:loc_30)", "dateprops": [], "properties": {}, "geometry": {"type": "Point", "coordinates": [14.1650907441802, 53.0305238006921], "crs": "4326"}}, {"type": "Feature", "id": "http://data.archaeology.link/data/bb5kbc/loc_3", "name": "Egsdorf bei K\u00f6nigs Wusterhausen 2 (bb5kbc:loc_3)", "dateprops": [], "properties": {}, "geometry": {"type": "Point", "coordinates": [13.5751209183095, 52.1238876997843], "crs": "4326"}}, {"type": "Feature", "id": "http://data.archaeology.link/data/bb5kbc/loc_11", "name": "Brottewitz 8 (bb5kbc:loc_11)", "dateprops": [], "properties": {}, "geometry": {"type": "Point", "coordinates": [13.2462762802107, 51.4705372020643], "crs": "4326"}}, {"type": "Feature", "id": "http://data.archaeology.link/data/bb5kbc/loc_2", "name": "Hohenfinow 10 (bb5kbc:loc_2)", "dateprops": [], "properties": {}, "geometry": {"type": "Point", "coordinates": [13.9298055943383, 52.8274620574839], "crs": "4326"}}, {"type": "Feature", "id": "http://data.archaeology.link/data/bb5kbc/loc_7", "name": "Neuendorf am See 13 (bb5kbc:loc_7)", "dateprops": [], "properties": {}, "geometry": {"type": "Point", "coordinates": [13.8801446514295, 52.1012036059188], "crs": "4326"}}, {"type": "Feature", "id": "http://data.archaeology.link/data/bb5kbc/loc_40", "name": "Kruszynek 6 (bb5kbc:loc_40)", "dateprops": [], "properties": {}, "geometry": {"type": "Point", "coordinates": [18.9947200232498, 52.5665872011118], "crs": "4326"}}, {"type": "Feature", "id": "http://data.archaeology.link/data/bb5kbc/loc_18", "name": "Bochow 15 (bb5kbc:loc_18)", "dateprops": [], "properties": {}, "geometry": {"type": "Point", "coordinates": [13.085296860556, 51.9626182078923], "crs": "4326"}}, {"type": "Feature", "id": "http://data.archaeology.link/data/bb5kbc/loc_5", "name": "Hohenbr\u00fcck 3 (bb5kbc:loc_5)", "dateprops": [], "properties": {}, "geometry": {"type": "Point", "coordinates": [13.9061497197174, 52.0999192589813], "crs": "4326"}}, {"type": "Feature", "id": "http://data.archaeology.link/data/bb5kbc/loc_41", "name": "Racot 18 (bb5kbc:loc_41)", "dateprops": [], "properties": {}, "geometry": {"type": "Point", "coordinates": [16.7086330880121, 52.0574297734268], "crs": "4326"}}, {"type": "Feature", "id": "http://data.archaeology.link/data/bb5kbc/loc_32", "name": "Herzsprung 7 (bb5kbc:loc_32)", "dateprops": [], "properties": {}, "geometry": {"type": "Point", "coordinates": [14.0149531909195, 52.9986661192959], "crs": "4326"}}, {"type": "Feature", "id": "http://data.archaeology.link/data/bb5kbc/loc_10", "name": "L\u00fcbben Steinkirchen 6 (bb5kbc:loc_10)", "dateprops": [], "properties": {}, "geometry": {"type": "Point", "coordinates": [13.9248020668579, 51.9068490790357], "crs": "4326"}}, {"type": "Feature", "id": "http://data.archaeology.link/data/bb5kbc/loc_35", "name": "Sch\u00f6nfeld bei Prenzlau 11 (bb5kbc:loc_35)", "dateprops": [], "properties": {}, "geometry": {"type": "Point", "coordinates": [13.9636863071334, 53.4277586791405], "crs": "4326"}}], "numberMatched": 43, "numberReturned": 43, "bbox": [11.1534869240729, 51.2351275316024, 18.9947200232498, 53.4277586791405], "crs": "http://www.opengis.net/def/crs/EPSG/0/4326"}